{
  "version": 1,
  "city": "Oran",
  "center": {
    "lat": 35.6976541,
    "lng": -0.6337376
  },
  "stops": [
    {
      "id": "1",
      "name": "Hassi Bounif",
      "name_ar": "حاسي بونيف",
      "lat": 35.691266,
      "lng": -0.49799,
      "district": "Hassi Bounif"
    },
    {
      "id": "2",
      "name": "Boulevard El-Tahrir",
      "name_ar": "نهج التحرير",
      "lat": 35.689828,
      "lng": -0.503191,
      "district": "Hassi Bounif"
    },
    {
      "id": "3",
      "name": "Sidi Maarouf",
      "name_ar": "سيدي معروف",
      "lat": 35.6815,
      "lng": -0.540349,
      "district": "Cité 344 logements"
    },
    {
      "id": "4",
      "name": "Hai Sabah",
      "name_ar": "حي الصباح",
      "lat": 35.696685,
      "lng": -0.571985,
      "district": "El Yasmine 2"
    },
    {
      "id": "5",
      "name": "Rond-point cité Es-Sabah",
      "name_ar": "دورا حي الصباح",
      "lat": 35.694984,
      "lng": -0.574788,
      "district": "Cité Essabah"
    },
    {
      "id": "7",
      "name": "Dar El Beida",
      "name_ar": "الدار البيضاء",
      "lat": 35.696177,
      "lng": -0.614376,
      "district": "Cité Chouhada"
    },
    {
      "id": "8",
      "name": "Les Castors",
      "name_ar": "كاسطور",
      "lat": 35.696177,
      "lng": -0.614376,
      "district": "Cité Chouhada"
    },
    {
      "id": "10",
      "name": "El Hamri",
      "name_ar": "الحمري",
      "lat": 35.688047,
      "lng": -0.639986,
      "district": "Cité El Hamri"
    },
    {
      "id": "11",
      "name": "Avenue Cheikh Abdelkader",
      "name_ar": "Avenue Cheikh Abdelkader",
      "lat": 35.693098,
      "lng": -0.635928,
      "district": "Cité El Hamri"
    },
    {
      "id": "15",
      "name": "Emir Abdelkader",
      "name_ar": "الأمير",
      "lat": 35.671254,
      "lng": -0.574115,
      "district": "Cité 64 Logements"
    },
    {
      "id": "17",
      "name": "Es Senia",
      "name_ar": "السانية وسط",
      "lat": 35.6481,
      "lng": -0.622875,
      "district": "Si Redouane"
    },
    {
      "id": "19",
      "name": "Place Mokrani",
      "name_ar": "ساحة مقراني",
      "lat": 35.716333,
      "lng": -0.612585,
      "district": "Cité Seddikia"
    },
    {
      "id": "20",
      "name": "Maraval",
      "name_ar": "مارافال",
      "lat": 35.673203,
      "lng": -0.652844,
      "district": "Cité Maraval"
    },
    {
      "id": "21",
      "name": "Cité Ezzitoun",
      "name_ar": "حي الزيتون",
      "lat": 35.700521,
      "lng": -0.638844,
      "district": "Yaghmoracen"
    },
    {
      "id": "23",
      "name": "Gare routiere El Bahia",
      "name_ar": "محطة الباهية",
      "lat": 35.679652,
      "lng": -0.612547,
      "district": "Cité Dhaya"
    },
    {
      "id": "24",
      "name": "Place Gargita",
      "name_ar": "ساحة قرقيطة",
      "lat": 35.716333,
      "lng": -0.612585,
      "district": "Cité Seddikia"
    },
    {
      "id": "27",
      "name": "Gambetta",
      "name_ar": "قمبيطة",
      "lat": 35.711455,
      "lng": -0.619463,
      "district": "Gambetta"
    },
    {
      "id": "28",
      "name": "HLM",
      "name_ar": "أشلام",
      "lat": 35.705868,
      "lng": -0.604399,
      "district": "Cité Ibn Rochd"
    },
    {
      "id": "29",
      "name": "Rond-Point El Morchid",
      "name_ar": "دوار المرشد",
      "lat": 35.705728,
      "lng": -0.598063,
      "district": "Cité Ibn Rochd"
    },
    {
      "id": "30",
      "name": "USTO",
      "name_ar": "جامعة العلوم والتكنولوجيا",
      "lat": 35.708023,
      "lng": -0.579427,
      "district": "Cité USTO"
    },
    {
      "id": "32",
      "name": "Dar El Hayat",
      "name_ar": "دار الحياة",
      "lat": 35.690965,
      "lng": -0.648787,
      "district": "Medina Jedida"
    },
    {
      "id": "38",
      "name": "Coca Oran",
      "name_ar": "كوكا",
      "lat": 35.662484,
      "lng": -0.695202,
      "district": "Haï Ben Arba"
    },
    {
      "id": "43",
      "name": "Nouvelle Ville",
      "name_ar": "المدينة الجديدة",
      "lat": 35.697002,
      "lng": -0.635519,
      "district": "Yaghmoracen"
    },
    {
      "id": "47",
      "name": "Rond-Point El Bahia",
      "name_ar": "دوار الباهية",
      "lat": 35.68385,
      "lng": -0.610086,
      "district": "Cité Zitoune"
    },
    {
      "id": "55",
      "name": "Cherfaoui",
      "name_ar": "شرفاوي",
      "lat": 35.670368,
      "lng": -0.665129,
      "district": "Yaghmoracen"
    },
    {
      "id": "61",
      "name": "Plateau",
      "name_ar": "بلاطو",
      "lat": 35.695602,
      "lng": -0.638667,
      "district": "Cité Sidi El Bachir"
    },
    {
      "id": "66",
      "name": "Bir El Djir",
      "name_ar": "بئر الجير",
      "lat": 35.720018,
      "lng": -0.567242,
      "district": "Haï Khmesti"
    },
    {
      "id": "69",
      "name": "Cité Chahid Mahmoud",
      "name_ar": "حي الشهيد محمود",
      "lat": 35.704496,
      "lng": -0.52689,
      "district": "Douar Boudjemâa"
    },
    {
      "id": "70",
      "name": "Rond-Point La Pépinière",
      "name_ar": "دوار المشتلة",
      "lat": 35.687146,
      "lng": -0.615645,
      "district": "Cité Zitoune"
    },
    {
      "id": "71",
      "name": "Cité AADL",
      "name_ar": "حي عدل",
      "lat": 35.654001,
      "lng": -0.65879,
      "district": "Cité Commandant Chérif Yahia"
    },
    {
      "id": "73",
      "name": "Hai Yasmine",
      "name_ar": "حي الياسمين",
      "lat": 35.699042,
      "lng": -0.563583,
      "district": "El Yasmine"
    },
    {
      "id": "74",
      "name": "EHU Oran 1 Novembre",
      "name_ar": "المستشفى الجامعي أول نوفمبر",
      "lat": 35.699166,
      "lng": -0.58276,
      "district": "Cité USTO"
    },
    {
      "id": "75",
      "name": "Cité Djamel",
      "name_ar": "حي جمال",
      "lat": 35.700067,
      "lng": -0.601854,
      "district": "Cité Ibn Rochd"
    },
    {
      "id": "78",
      "name": "El Bahia",
      "name_ar": "الباهية",
      "lat": 35.679704,
      "lng": -0.613188,
      "district": "Cité Dhaya"
    },
    {
      "id": "82",
      "name": "Boulevard Millénium",
      "name_ar": "نهج الألفية",
      "lat": 35.717348,
      "lng": -0.590606,
      "district": "Haï Akid Lotfi"
    },
    {
      "id": "90",
      "name": "Universite Belgaid",
      "name_ar": "جامعة بلقايد",
      "lat": 35.735751,
      "lng": -0.536769,
      "district": "Sidi Bachir"
    },
    {
      "id": "91",
      "name": "Palais des Sports",
      "name_ar": "قصر الرياضات",
      "lat": 35.68682,
      "lng": -0.647753,
      "district": "Cité Oussama"
    },
    {
      "id": "94",
      "name": "El Kerma",
      "name_ar": "الكرمة",
      "lat": 35.617215,
      "lng": -0.58259,
      "district": "El Kerma"
    },
    {
      "id": "95",
      "name": "Cité El Amel",
      "name_ar": "حي الأمل",
      "lat": 35.639291,
      "lng": -0.58532,
      "district": "El Kerma"
    },
    {
      "id": "98",
      "name": "Gare ferroviaire Oran",
      "name_ar": "محطة القطار",
      "lat": 35.697921,
      "lng": -0.639078,
      "district": "Yaghmoracen"
    },
    {
      "id": "100",
      "name": "Hassi Ameur",
      "name_ar": "حاسي عامر",
      "lat": 35.704373,
      "lng": -0.474611,
      "district": "Hassi Bounif"
    },
    {
      "id": "101",
      "name": "Ben Freha",
      "name_ar": "بن فريحة",
      "lat": 35.693585,
      "lng": -0.418578,
      "district": "Ben Freha"
    },
    {
      "id": "103",
      "name": "Ritaj Mall",
      "name_ar": "رتاج مول",
      "lat": 35.674941,
      "lng": -0.630534,
      "district": "Cité Essalem"
    },
    {
      "id": "104",
      "name": "Cité Es Salam",
      "name_ar": "حي السلام",
      "lat": 35.675744,
      "lng": -0.637648,
      "district": "Cité Essalem"
    },
    {
      "id": "126",
      "name": "AADL Misserghin",
      "name_ar": "عدل مسرغين",
      "lat": 35.654001,
      "lng": -0.65879,
      "district": "Cité Commandant Chérif Yahia"
    },
    {
      "id": "129",
      "name": "Place 1er Novembre",
      "name_ar": "ساحة أول نوفمبر",
      "lat": 35.703662,
      "lng": -0.649084,
      "district": "Cité Ennasr"
    },
    {
      "id": "132",
      "name": "La Pépinière",
      "name_ar": "المشتلة",
      "lat": 35.706033,
      "lng": -0.573071,
      "district": "Cité USTO"
    },
    {
      "id": "133",
      "name": "USTO",
      "name_ar": "إيسطو",
      "lat": 35.70215,
      "lng": -0.590169,
      "district": "Cité USTO"
    },
    {
      "id": "135",
      "name": "Ritaj Mall",
      "name_ar": "ريتاج مول",
      "lat": 35.694506,
      "lng": -0.662693,
      "district": "Cité Ras El Ain"
    },
    {
      "id": "137",
      "name": "Saint-Pierre",
      "name_ar": "سان بيار",
      "lat": 35.701041,
      "lng": -0.638646,
      "district": "Yaghmoracen"
    },
    {
      "id": "141",
      "name": "Centre-Ville",
      "name_ar": "وسط المدينة",
      "lat": 35.695588,
      "lng": -0.647191,
      "district": "Medina Jedida"
    },
    {
      "id": "142",
      "name": "Mers El Kebir",
      "name_ar": "المرسى الكبير",
      "lat": 35.727733,
      "lng": -0.708332,
      "district": "Mers El Kebir"
    },
    {
      "id": "143",
      "name": "Ain El Turk",
      "name_ar": "عين الترك",
      "lat": 35.740207,
      "lng": -0.754193,
      "district": "Aïn El Turk"
    },
    {
      "id": "144",
      "name": "Les Andalouses",
      "name_ar": "الأندلسيات",
      "lat": 35.705069,
      "lng": -0.896866,
      "district": "Les Andalouses"
    },
    {
      "id": "160",
      "name": "Boulevard El-Tahrir",
      "name_ar": "نهج التحرير",
      "lat": 35.695146,
      "lng": -0.499537,
      "district": "Hassi Bounif"
    },
    {
      "id": "161",
      "name": "Polyclinique Sidi Maarouf",
      "name_ar": "Polyclinique Sidi Maarouf",
      "lat": 35.685761,
      "lng": -0.542909,
      "district": "Cité 344 logements"
    },
    {
      "id": "162",
      "name": "Cosmétique Kbayli",
      "name_ar": "LV",
      "lat": 35.688248,
      "lng": -0.556471,
      "district": "Cité Essabah"
    },
    {
      "id": "163",
      "name": "EHU USTO - 1 Novembre",
      "name_ar": "المؤسسة العمومية الإستشفائية أول نوفمبر",
      "lat": 35.69712,
      "lng": -0.583483,
      "district": "Cité USTO"
    },
    {
      "id": "164",
      "name": "Mosquée Abdelhamid Ben Badis",
      "name_ar": "مسجد عبد الحميد إبن باديس",
      "lat": 35.697325,
      "lng": -0.605525,
      "district": "Cité Djamel Eddine"
    },
    {
      "id": "165",
      "name": "Rond-Point Dar El Beida",
      "name_ar": "مدار الدار البيضاء",
      "lat": 35.696853,
      "lng": -0.613508,
      "district": "Cité Chouhada"
    },
    {
      "id": "166",
      "name": "Lycée Mustapha Haddam",
      "name_ar": "ثانوية مصطفى هدّام",
      "lat": 35.692145,
      "lng": -0.618748,
      "district": "Cité Chouhada"
    },
    {
      "id": "167",
      "name": "Cité El Khaldia",
      "name_ar": "حي الخلدية",
      "lat": 35.69332,
      "lng": -0.62448,
      "district": "Cité El Khaldia"
    },
    {
      "id": "168",
      "name": "Nouvelle station de radio d'Oran",
      "name_ar": "محطة الإذاعة الجديدة وهران",
      "lat": 35.697841,
      "lng": -0.629455,
      "district": "Cité M'Naouer"
    },
    {
      "id": "169",
      "name": "Prison d'Oran",
      "name_ar": "سجن وهران",
      "lat": 35.690579,
      "lng": -0.642684,
      "district": "Cité El Mokrani"
    },
    {
      "id": "170",
      "name": "Choupot",
      "name_ar": "شوبو",
      "lat": 35.678375,
      "lng": -0.657462,
      "district": "Cité Essaada"
    },
    {
      "id": "171",
      "name": "Sonelgaz",
      "name_ar": "سونلغاز",
      "lat": 35.698999,
      "lng": -0.623999,
      "district": "El Makri"
    },
    {
      "id": "172",
      "name": "Valero (Rue Fernand Iveton)",
      "name_ar": "فاليرو",
      "lat": 35.701609,
      "lng": -0.650365,
      "district": "Cité Ennasr"
    },
    {
      "id": "173",
      "name": "Université (IGMO)",
      "name_ar": "جامعة إيغامو",
      "lat": 35.66086,
      "lng": -0.63199,
      "district": "Si Redouane"
    },
    {
      "id": "174",
      "name": "Terminus Es Sénia",
      "name_ar": "محطة السانية",
      "lat": 35.652115,
      "lng": -0.627843,
      "district": "Si Redouane"
    },
    {
      "id": "175",
      "name": "Cité Cherif Yahia",
      "name_ar": "حي الشريف يحيى",
      "lat": 35.647805,
      "lng": -0.649736,
      "district": "Cité Commandant Chérif Yahia"
    },
    {
      "id": "176",
      "name": "El Barki",
      "name_ar": "البركي",
      "lat": 35.652323,
      "lng": -0.568151,
      "district": "Nedjma"
    },
    {
      "id": "177",
      "name": "Grande Terre",
      "name_ar": "غراند تير",
      "lat": 35.691515,
      "lng": -0.609476,
      "district": "Cité Zitoune"
    },
    {
      "id": "179",
      "name": "Adl 1300 El Hassi",
      "name_ar": "عدل 1300 الحاسي",
      "lat": 35.662414,
      "lng": -0.685958,
      "district": "Hassi Bouamama"
    },
    {
      "id": "180",
      "name": "Cité Universitaire",
      "name_ar": "الحي الجامعي",
      "lat": 35.679719,
      "lng": -0.643456,
      "district": "Es Sénia"
    },
    {
      "id": "181",
      "name": "ESSB Sciences Biologiques",
      "name_ar": "المدرسة العليا للعلوم البيولوجية",
      "lat": 35.670275,
      "lng": -0.637652,
      "district": "Es Sénia"
    },
    {
      "id": "182",
      "name": "ENSEP",
      "name_ar": "إنساب",
      "lat": 35.666258,
      "lng": -0.635209,
      "district": "Es Sénia"
    },
    {
      "id": "184",
      "name": "La Poste Mdina Jdida",
      "name_ar": "بريد المدينة الجديدة",
      "lat": 35.694597,
      "lng": -0.650832,
      "district": "Medina Jedida"
    },
    {
      "id": "185",
      "name": "Mdina Jdida",
      "name_ar": "المدينة الجديدة",
      "lat": 35.693645,
      "lng": -0.650317,
      "district": "Medina Jedida"
    },
    {
      "id": "186",
      "name": "Bd Colonel Lotfi",
      "name_ar": "شارع العقيد لطفي",
      "lat": 35.689094,
      "lng": -0.648727,
      "district": "Medina Jedida"
    },
    {
      "id": "187",
      "name": "Jardin Othmania",
      "name_ar": "حديقة العثمانية",
      "lat": 35.676053,
      "lng": -0.641207,
      "district": "Es Sénia"
    },
    {
      "id": "188",
      "name": "Rocher Terminus",
      "name_ar": "Rocher Terminus 37 & H",
      "lat": 35.649313,
      "lng": -0.710313,
      "district": "Haï Ben Arba"
    },
    {
      "id": "193",
      "name": "Arrêt Cité Les Amandiers",
      "name_ar": "Arrêt Cité Les Amandiers",
      "lat": 35.675603,
      "lng": -0.676781,
      "district": "Cité Les Amandiers"
    },
    {
      "id": "194",
      "name": "Arrêt Yaghmoracen",
      "name_ar": "Arrêt Yaghmoracen",
      "lat": 35.668828,
      "lng": -0.662217,
      "district": "Yaghmoracen"
    },
    {
      "id": "197",
      "name": "Lalofa",
      "name_ar": "Lalofa",
      "lat": 35.66629,
      "lng": -0.641597,
      "district": "Cité Les Palmiers"
    },
    {
      "id": "201",
      "name": "Hôpital Usto Premier Novembre",
      "name_ar": "Hôpital Usto Premier Novembre",
      "lat": 35.695885,
      "lng": -0.57939,
      "district": "Cité Essabah"
    },
    {
      "id": "208",
      "name": "Feu rouge Samat",
      "name_ar": "Feu rouge Samat",
      "lat": 35.720305,
      "lng": -0.582926,
      "district": "Cité USTO"
    },
    {
      "id": "211",
      "name": "Fernandville",
      "name_ar": "Fernandville",
      "lat": 35.731537,
      "lng": -0.582203,
      "district": "Cité USTO"
    },
    {
      "id": "214",
      "name": "Hôpital Pédiatrique Canastel",
      "name_ar": "Hôpital Pédiatrique Canastel",
      "lat": 35.738065,
      "lng": -0.572249,
      "district": "Cité USTO"
    },
    {
      "id": "221",
      "name": "Cité Petit",
      "name_ar": "Cité Petit",
      "lat": 35.677063,
      "lng": -0.665462,
      "district": "Cité Les Amandiers"
    },
    {
      "id": "228",
      "name": "Cité Mediouni",
      "name_ar": "Cité Mediouni",
      "lat": 35.680654,
      "lng": -0.639632,
      "district": "Es Sénia"
    },
    {
      "id": "230",
      "name": "Stade Ahmed Zabana",
      "name_ar": "Stade Ahmed Zabana",
      "lat": 35.681846,
      "lng": -0.636499,
      "district": "Es Sénia"
    },
    {
      "id": "232",
      "name": "Cité Tirigo",
      "name_ar": "Cité Tirigo",
      "lat": 35.686457,
      "lng": -0.625564,
      "district": "Cité Dhaya"
    },
    {
      "id": "233",
      "name": "Bastille",
      "name_ar": "Bastille",
      "lat": 35.688098,
      "lng": -0.623307,
      "district": "Cité Dhaya"
    },
    {
      "id": "241",
      "name": "Seddikia",
      "name_ar": "Seddikia",
      "lat": 35.712765,
      "lng": -0.600038,
      "district": "Point du Jour"
    },
    {
      "id": "242",
      "name": "Dar el Hayat",
      "name_ar": "Dar el Hayat",
      "lat": 35.690049,
      "lng": -0.648861,
      "district": "Medina Jedida"
    },
    {
      "id": "247",
      "name": "Palais de Justice",
      "name_ar": "قصر العدالة",
      "lat": 35.699504,
      "lng": -0.601907,
      "district": "Cité Ibn Rochd"
    },
    {
      "id": "254",
      "name": "Daira Bir el Djir",
      "name_ar": "Daira Bir el Djir",
      "lat": 35.728257,
      "lng": -0.567275,
      "district": "Haï Khmesti"
    },
    {
      "id": "260",
      "name": "Arrêt Sidi Bachir",
      "name_ar": "Arrêt Sidi Bachir",
      "lat": 35.739422,
      "lng": -0.538472,
      "district": "Sidi Bachir"
    },
    {
      "id": "262",
      "name": "Boulevard Docteur Benzerdjeb",
      "name_ar": "Boulevard Docteur Benzerdjeb",
      "lat": 35.699133,
      "lng": -0.64742,
      "district": "Cité Ennasr"
    },
    {
      "id": "270",
      "name": "es-Senia Centre commercial",
      "name_ar": "es-Senia Centre commercial",
      "lat": 35.638343,
      "lng": -0.588617,
      "district": "El Kerma"
    },
    {
      "id": "276",
      "name": "Lycée Akid Lotfi",
      "name_ar": "Lycée Akid Lotfi",
      "lat": 35.70513,
      "lng": -0.630525,
      "district": "Cité M'Naouer"
    },
    {
      "id": "277",
      "name": "Avenue Max Marchand",
      "name_ar": "Avenue Max Marchand",
      "lat": 35.706293,
      "lng": -0.624168,
      "district": "Cité M'Naouer"
    },
    {
      "id": "294",
      "name": "Clinique Nekkache",
      "name_ar": "Clinique Nekkache",
      "lat": 35.701989,
      "lng": -0.595874,
      "district": "Cité Ibn Rochd"
    },
    {
      "id": "296",
      "name": "Université USTO",
      "name_ar": "Université USTO",
      "lat": 35.70401,
      "lng": -0.577648,
      "district": "Cité USTO"
    },
    {
      "id": "299",
      "name": "Boulevard Chahid Taleb Abderrahmane",
      "name_ar": "Boulevard Chahid Taleb Abderrahmane",
      "lat": 35.704264,
      "lng": -0.576879,
      "district": "Cité USTO"
    },
    {
      "id": "315",
      "name": "Misserghin - Masjid",
      "name_ar": "Misserghin - Masjid",
      "lat": 35.612394,
      "lng": -0.74027,
      "district": "Haï Si Rabah"
    },
    {
      "id": "316",
      "name": "Place de Misserghin",
      "name_ar": "Place de Misserghin",
      "lat": 35.613854,
      "lng": -0.738183,
      "district": "Haï Si Rabah"
    },
    {
      "id": "317",
      "name": "Misserghin - Bureau de poste",
      "name_ar": "Misserghin - Bureau de poste",
      "lat": 35.615181,
      "lng": -0.736187,
      "district": "Haï Si Rabah"
    },
    {
      "id": "322",
      "name": "Arrêt Cité Fellaoucene",
      "name_ar": "Arrêt Cité Fellaoucene",
      "lat": 35.680222,
      "lng": -0.602508,
      "district": "Cité Fellaoucene"
    },
    {
      "id": "323",
      "name": "Avenue Des 40 Martyrs",
      "name_ar": "Avenue Des 40 Martyrs",
      "lat": 35.688469,
      "lng": -0.622528,
      "district": "Cité Dhaya"
    },
    {
      "id": "324",
      "name": "Rue Bouras Belkacem",
      "name_ar": "Rue Bouras Belkacem",
      "lat": 35.691312,
      "lng": -0.627701,
      "district": "Cité El Khaldia"
    },
    {
      "id": "325",
      "name": "Avenue Des 40 Martyrs",
      "name_ar": "Avenue Des 40 Martyrs",
      "lat": 35.693045,
      "lng": -0.630852,
      "district": "Cité El Khaldia"
    },
    {
      "id": "330",
      "name": "Es Senia Terminus",
      "name_ar": "Es Senia Terminus",
      "lat": 35.642454,
      "lng": -0.617248,
      "district": "Si Redouane"
    },
    {
      "id": "331",
      "name": "Es Sénia Sud",
      "name_ar": "سانيا جنوب",
      "lat": 35.646073,
      "lng": -0.621729,
      "district": "Si Redouane"
    },
    {
      "id": "332",
      "name": "Es Sénia Centre",
      "name_ar": "السانية وسط",
      "lat": 35.650043,
      "lng": -0.625228,
      "district": "Si Redouane"
    },
    {
      "id": "333",
      "name": "Moulay AbdelQadir",
      "name_ar": "مولاي عبد القادر",
      "lat": 35.654972,
      "lng": -0.628213,
      "district": "Si Redouane"
    },
    {
      "id": "334",
      "name": "Cité Volontaire ENSET",
      "name_ar": "الحي الجامعي المتطوع",
      "lat": 35.665512,
      "lng": -0.63465,
      "district": "Es Sénia"
    },
    {
      "id": "335",
      "name": "Lycée les Palmiers",
      "name_ar": "ثانوية النخيل",
      "lat": 35.671176,
      "lng": -0.638122,
      "district": "Es Sénia"
    },
    {
      "id": "336",
      "name": "Boulevard Houha Mohamed",
      "name_ar": "Boulevard Houha Mohamed",
      "lat": 35.683421,
      "lng": -0.64563,
      "district": "Cité Oussama"
    },
    {
      "id": "337",
      "name": "Houha Tlemcen",
      "name_ar": "حوحة تلمسان",
      "lat": 35.697229,
      "lng": -0.651463,
      "district": "Medina Jedida"
    },
    {
      "id": "338",
      "name": "Place Mokrani",
      "name_ar": "ساحة المقراني",
      "lat": 35.700515,
      "lng": -0.65031,
      "district": "Cité Ennasr"
    },
    {
      "id": "339",
      "name": "Emir Abd el Qader",
      "name_ar": "الأمير عبد القادر",
      "lat": 35.700328,
      "lng": -0.645231,
      "district": "Cité Ennasr"
    },
    {
      "id": "340",
      "name": "Gare SNTF",
      "name_ar": "محطة القطار",
      "lat": 35.69968,
      "lng": -0.638477,
      "district": "Yaghmoracen"
    },
    {
      "id": "341",
      "name": "Boulevard Colonel ben AbderRazzaq",
      "name_ar": "نهج العقيد أحمد عبد الرزاق",
      "lat": 35.698564,
      "lng": -0.6318,
      "district": "Cité El Khaldia"
    },
    {
      "id": "342",
      "name": "Place Frères Moulay",
      "name_ar": "الإخوة مولاي",
      "lat": 35.699055,
      "lng": -0.625554,
      "district": "El Makri"
    },
    {
      "id": "343",
      "name": "Ma'alem Bentayeb",
      "name_ar": "معلم بن طيب",
      "lat": 35.698026,
      "lng": -0.617886,
      "district": "Cité Chouhada"
    },
    {
      "id": "344",
      "name": "Hôpital 1er Novembre",
      "name_ar": "المستشفى الجامعي أول نوفمبر",
      "lat": 35.70219,
      "lng": -0.583543,
      "district": "Cité USTO"
    },
    {
      "id": "345",
      "name": "Hai Yasmine",
      "name_ar": "حي الياسمين",
      "lat": 35.70342,
      "lng": -0.570033,
      "district": "Cité USTO"
    },
    {
      "id": "346",
      "name": "Gare routière Sidi Ma'arouf",
      "name_ar": "محطة سيدي معروف",
      "lat": 35.690755,
      "lng": -0.568821,
      "district": "El Yasmine 2"
    },
    {
      "id": "364",
      "name": "La Glacière",
      "name_ar": "La Glacière",
      "lat": 35.675284,
      "lng": -0.66257,
      "district": "Cité Les Amandiers"
    },
    {
      "id": "367",
      "name": "Arrêt Yaghmoracen",
      "name_ar": "Arrêt Yaghmoracen",
      "lat": 35.696916,
      "lng": -0.641485,
      "district": "Yaghmoracen"
    },
    {
      "id": "368",
      "name": "Boulevard Commandant Ben Addad Bena",
      "name_ar": "Boulevard Commandant Ben Addad Bena",
      "lat": 35.693833,
      "lng": -0.634971,
      "district": "Cité El Hamri"
    },
    {
      "id": "369",
      "name": "Avenue des 40 Martyrs",
      "name_ar": "Avenue des 40 Martyrs",
      "lat": 35.686257,
      "lng": -0.618504,
      "district": "Cité Dhaya"
    },
    {
      "id": "370",
      "name": "Rue Talha Larbi",
      "name_ar": "Rue Talha Larbi",
      "lat": 35.684476,
      "lng": -0.615249,
      "district": "Cité Zitoune"
    },
    {
      "id": "371",
      "name": "Rue Ahmed Hanafi",
      "name_ar": "Rue Ahmed Hanafi",
      "lat": 35.683735,
      "lng": -0.60486,
      "district": "Cité Fellaoucene"
    },
    {
      "id": "377",
      "name": "Terminus 62",
      "name_ar": "Terminus 62",
      "lat": 35.703387,
      "lng": -0.576909,
      "district": "Cité USTO"
    },
    {
      "id": "378",
      "name": "Arrêt 62",
      "name_ar": "Arrêt 62",
      "lat": 35.701553,
      "lng": -0.575596,
      "district": "Cité USTO"
    },
    {
      "id": "379",
      "name": "Hai Sabah Rond point",
      "name_ar": "Hai Sabah Rond point",
      "lat": 35.695461,
      "lng": -0.57439,
      "district": "Cité Essabah"
    },
    {
      "id": "380",
      "name": "Hai Sabah",
      "name_ar": "Hai Sabah",
      "lat": 35.693585,
      "lng": -0.573285,
      "district": "Cité Essabah"
    },
    {
      "id": "381",
      "name": "Sidi Chahmi",
      "name_ar": "Sidi Chahmi",
      "lat": 35.680448,
      "lng": -0.539666,
      "district": "Cité 344 logements"
    },
    {
      "id": "382",
      "name": "Route du port",
      "name_ar": "Route du port",
      "lat": 35.656708,
      "lng": -0.521377,
      "district": "Cité 344 logements"
    },
    {
      "id": "383",
      "name": "Mosquée Sumayya bint Khayyat",
      "name_ar": "Mosquée Sumayya bint Khayyat",
      "lat": 35.553043,
      "lng": -0.448477,
      "district": "Oued Tlelat"
    },
    {
      "id": "384",
      "name": "La route de l'Oranie",
      "name_ar": "La route de l'Oranie",
      "lat": 35.551951,
      "lng": -0.447759,
      "district": "Oued Tlelat"
    },
    {
      "id": "385",
      "name": "Arrêt Oued Tlelat",
      "name_ar": "Arrêt Oued Tlelat",
      "lat": 35.548992,
      "lng": -0.442105,
      "district": "Oued Tlelat"
    },
    {
      "id": "386",
      "name": "Arrêt Oued Tlelat",
      "name_ar": "Arrêt Oued Tlelat",
      "lat": 35.54917,
      "lng": -0.437732,
      "district": "Oued Tlelat"
    },
    {
      "id": "387",
      "name": "Arrêt Oued Tlelat",
      "name_ar": "Arrêt Oued Tlelat",
      "lat": 35.556799,
      "lng": -0.437277,
      "district": "Oued Tlelat"
    },
    {
      "id": "388",
      "name": "Arrêt Oued Tlelat",
      "name_ar": "Arrêt Oued Tlelat",
      "lat": 35.546925,
      "lng": -0.417848,
      "district": "Oued Tlelat"
    },
    {
      "id": "389",
      "name": "Oued Tlelat",
      "name_ar": "Oued Tlelat",
      "lat": 35.546323,
      "lng": -0.414469,
      "district": "Oued Tlelat"
    },
    {
      "id": "390",
      "name": "Oued Tlilet",
      "name_ar": "Oued Tlilet",
      "lat": 35.543622,
      "lng": -0.411677,
      "district": "Oued Tlelat"
    },
    {
      "id": "391",
      "name": "Terminus La Serra Oued Tlelat",
      "name_ar": "Terminus La Serra Oued Tlelat",
      "lat": 35.542448,
      "lng": -0.414171,
      "district": "Oued Tlelat"
    },
    {
      "id": "398",
      "name": "Résidence Hasnaoui",
      "name_ar": "Résidence Hasnaoui",
      "lat": 35.70608,
      "lng": -0.557172,
      "district": "El Nour"
    },
    {
      "id": "400",
      "name": "Mosquée bin Badis",
      "name_ar": "Mosquée bin Badis",
      "lat": 35.695832,
      "lng": -0.605076,
      "district": "Cité Djamel Eddine"
    },
    {
      "id": "405",
      "name": "Cathédrale",
      "name_ar": "",
      "lat": 35.713774,
      "lng": -0.61601,
      "district": ""
    },
    {
      "id": "406",
      "name": "Cinema Maghreb",
      "name_ar": "",
      "lat": 35.702267,
      "lng": -0.641347,
      "district": ""
    },
    {
      "id": "407",
      "name": "Centre ville Place des victoires",
      "name_ar": "",
      "lat": 35.709616,
      "lng": -0.623322,
      "district": ""
    },
    {
      "id": "408",
      "name": "Miramar",
      "name_ar": "",
      "lat": 35.701764,
      "lng": -0.632764,
      "district": ""
    },
    {
      "id": "409",
      "name": "Place Fontanelle bis",
      "name_ar": "",
      "lat": 35.711609,
      "lng": -0.61702,
      "district": ""
    },
    {
      "id": "410",
      "name": "Lycée Hamou Boutlelis",
      "name_ar": "",
      "lat": 35.711517,
      "lng": -0.61451,
      "district": ""
    },
    {
      "id": "411",
      "name": "Hotel Sheraton",
      "name_ar": "",
      "lat": 35.714635,
      "lng": -0.609739,
      "district": ""
    },
    {
      "id": "412",
      "name": "Les Falaises (Sonatrach Management Academy)",
      "name_ar": "",
      "lat": 35.711978,
      "lng": -0.60973,
      "district": ""
    },
    {
      "id": "413",
      "name": "Clinique Dentaire Taleb",
      "name_ar": "",
      "lat": 35.712267,
      "lng": -0.607366,
      "district": ""
    },
    {
      "id": "414",
      "name": "CNEP Seddikia",
      "name_ar": "",
      "lat": 35.712785,
      "lng": -0.603399,
      "district": ""
    },
    {
      "id": "415",
      "name": "Seddikia Feu rouge",
      "name_ar": "",
      "lat": 35.712963,
      "lng": -0.602546,
      "district": ""
    },
    {
      "id": "416",
      "name": "Résidence Millenium Square",
      "name_ar": "",
      "lat": 35.722954,
      "lng": -0.577707,
      "district": ""
    },
    {
      "id": "417",
      "name": "Rond Point Techno",
      "name_ar": "",
      "lat": 35.725551,
      "lng": -0.572451,
      "district": ""
    },
    {
      "id": "418",
      "name": "CNL Millenium",
      "name_ar": "",
      "lat": 35.729738,
      "lng": -0.562148,
      "district": ""
    },
    {
      "id": "419",
      "name": "La Casoran",
      "name_ar": "",
      "lat": 35.699465,
      "lng": -0.633812,
      "district": ""
    },
    {
      "id": "420",
      "name": "Direction de l'éducation",
      "name_ar": "",
      "lat": 35.70439,
      "lng": -0.628534,
      "district": ""
    },
    {
      "id": "421",
      "name": "Tandjaoui",
      "name_ar": "",
      "lat": 35.707488,
      "lng": -0.624359,
      "district": ""
    },
    {
      "id": "422",
      "name": "Gambetta La Poste",
      "name_ar": "",
      "lat": 35.708745,
      "lng": -0.611947,
      "district": ""
    },
    {
      "id": "423",
      "name": "Carrefour les 3 Cliniques Nekkache",
      "name_ar": "",
      "lat": 35.705169,
      "lng": -0.59118,
      "district": ""
    },
    {
      "id": "424",
      "name": "Cité Usto Marché",
      "name_ar": "",
      "lat": 35.704532,
      "lng": -0.585347,
      "district": ""
    },
    {
      "id": "426",
      "name": "Tarbi3a",
      "name_ar": "",
      "lat": 35.707261,
      "lng": -0.608164,
      "district": ""
    },
    {
      "id": "430",
      "name": "Les Amandiers stade",
      "name_ar": "",
      "lat": 35.69722,
      "lng": -0.651425,
      "district": ""
    },
    {
      "id": "434",
      "name": "Saint Antoine (Satatwan)",
      "name_ar": "",
      "lat": 35.69722,
      "lng": -0.651425,
      "district": ""
    },
    {
      "id": "436",
      "name": "Caserne Choupot",
      "name_ar": "",
      "lat": 35.689529,
      "lng": -0.655795,
      "district": ""
    },
    {
      "id": "437",
      "name": "Choupot station service",
      "name_ar": "",
      "lat": 35.682512,
      "lng": -0.659286,
      "district": ""
    },
    {
      "id": "438",
      "name": "Yaghmoracen Parc",
      "name_ar": "",
      "lat": 35.668706,
      "lng": -0.659057,
      "district": ""
    },
    {
      "id": "439",
      "name": "Hopital Militaire",
      "name_ar": "",
      "lat": 35.66912,
      "lng": -0.668329,
      "district": ""
    },
    {
      "id": "449",
      "name": "Es Senia Kara",
      "name_ar": "",
      "lat": 35.660749,
      "lng": -0.618299,
      "district": ""
    },
    {
      "id": "450",
      "name": "Institut de Maintenance et de Sécurité Industrielle",
      "name_ar": "",
      "lat": 35.661922,
      "lng": -0.61936,
      "district": ""
    },
    {
      "id": "451",
      "name": "Es Senia - La Poste",
      "name_ar": "",
      "lat": 35.664007,
      "lng": -0.622705,
      "district": ""
    },
    {
      "id": "452",
      "name": "Es Senia - Mairie",
      "name_ar": "",
      "lat": 35.666333,
      "lng": -0.623094,
      "district": ""
    },
    {
      "id": "453",
      "name": "Es Senia - Polyclinique (unconfirmed)",
      "name_ar": "",
      "lat": 35.667572,
      "lng": -0.625475,
      "district": ""
    },
    {
      "id": "454",
      "name": "Es Senia - Sonelgaz Direction de Distribution",
      "name_ar": "",
      "lat": 35.67014,
      "lng": -0.626338,
      "district": ""
    },
    {
      "id": "455",
      "name": "IGCMO",
      "name_ar": "",
      "lat": 35.671198,
      "lng": -0.628233,
      "district": ""
    },
    {
      "id": "456",
      "name": "Heliport Cité Emir",
      "name_ar": "",
      "lat": 35.672901,
      "lng": -0.629627,
      "district": ""
    },
    {
      "id": "457",
      "name": "Mdina Jdida Place roux",
      "name_ar": "",
      "lat": 35.695061,
      "lng": -0.652934,
      "district": ""
    },
    {
      "id": "458",
      "name": "Musée Ahmed Zabana",
      "name_ar": "",
      "lat": 35.695501,
      "lng": -0.64495,
      "district": ""
    },
    {
      "id": "459",
      "name": "Tribunal d'Oran",
      "name_ar": "",
      "lat": 35.697815,
      "lng": -0.657739,
      "district": ""
    },
    {
      "id": "467",
      "name": "el Bahia Gare routière",
      "name_ar": "",
      "lat": 35.664343,
      "lng": -0.637941,
      "district": ""
    },
    {
      "id": "469",
      "name": "Chteibo Rond point",
      "name_ar": "",
      "lat": 35.646723,
      "lng": -0.569249,
      "district": ""
    },
    {
      "id": "470",
      "name": "Saint Remy sarimi",
      "name_ar": "",
      "lat": 35.642802,
      "lng": -0.555209,
      "district": ""
    },
    {
      "id": "473",
      "name": "Delmonte",
      "name_ar": "",
      "lat": 35.690646,
      "lng": -0.628514,
      "district": ""
    },
    {
      "id": "474",
      "name": "AADL Usto",
      "name_ar": "",
      "lat": 35.696485,
      "lng": -0.606856,
      "district": ""
    },
    {
      "id": "475",
      "name": "Bir el Djir Petroser",
      "name_ar": "",
      "lat": 35.704619,
      "lng": -0.589917,
      "district": ""
    },
    {
      "id": "476",
      "name": "Porte de Bir el Djir",
      "name_ar": "",
      "lat": 35.72194,
      "lng": -0.564327,
      "district": ""
    },
    {
      "id": "477",
      "name": "Boujemaa",
      "name_ar": "",
      "lat": 35.690442,
      "lng": -0.521521,
      "district": ""
    },
    {
      "id": "478",
      "name": "Porte de Boujemaa",
      "name_ar": "",
      "lat": 35.68972,
      "lng": -0.545142,
      "district": ""
    },
    {
      "id": "485",
      "name": "Sananas",
      "name_ar": "",
      "lat": 35.689017,
      "lng": -0.653443,
      "district": ""
    },
    {
      "id": "486",
      "name": "Chakouri",
      "name_ar": "",
      "lat": 35.694679,
      "lng": -0.644656,
      "district": ""
    },
    {
      "id": "487",
      "name": "Ida'a (Radio Régionale Oran)",
      "name_ar": "",
      "lat": 35.697036,
      "lng": -0.62998,
      "district": ""
    },
    {
      "id": "488",
      "name": "Castors Cliniques des Jasmins",
      "name_ar": "",
      "lat": 35.695973,
      "lng": -0.62251,
      "district": ""
    },
    {
      "id": "489",
      "name": "les Castors jardin",
      "name_ar": "",
      "lat": 35.691211,
      "lng": -0.619809,
      "district": ""
    },
    {
      "id": "490",
      "name": "Cité Djamal Sonatrach",
      "name_ar": "",
      "lat": 35.697715,
      "lng": -0.603595,
      "district": ""
    },
    {
      "id": "491",
      "name": "Morchid Gare",
      "name_ar": "",
      "lat": 35.707091,
      "lng": -0.593553,
      "district": ""
    },
    {
      "id": "492",
      "name": "Base CSCEC",
      "name_ar": "",
      "lat": 35.69213,
      "lng": -0.610044,
      "district": ""
    },
    {
      "id": "493",
      "name": "Usto Nord",
      "name_ar": "",
      "lat": 35.689625,
      "lng": -0.612881,
      "district": ""
    },
    {
      "id": "494",
      "name": "AADL Pepiniere",
      "name_ar": "",
      "lat": 35.692723,
      "lng": -0.6029,
      "district": ""
    },
    {
      "id": "495",
      "name": "Carrefour USTO",
      "name_ar": "",
      "lat": 35.698365,
      "lng": -0.590157,
      "district": ""
    },
    {
      "id": "507",
      "name": "Hai Sabah Dépot",
      "name_ar": "",
      "lat": 35.688455,
      "lng": -0.55739,
      "district": ""
    },
    {
      "id": "516",
      "name": "Sidi Ma'rouf Polyclinique",
      "name_ar": "",
      "lat": 35.6834532,
      "lng": -0.5318772,
      "district": ""
    },
    {
      "id": "517",
      "name": "Hassi Bounif Pepiniere (unconfirmed)",
      "name_ar": "",
      "lat": 35.686344,
      "lng": -0.523487,
      "district": ""
    },
    {
      "id": "518",
      "name": "Hassi Bounif APC (unconfirmed)",
      "name_ar": "",
      "lat": 35.687432,
      "lng": -0.514786,
      "district": ""
    },
    {
      "id": "519",
      "name": "Hassi Bounif Monument (unconfirmed)",
      "name_ar": "",
      "lat": 35.6893128,
      "lng": -0.5064618,
      "district": ""
    },
    {
      "id": "520",
      "name": "Hassi 'Ameur Zoning (unconfirmed)",
      "name_ar": "",
      "lat": 35.697809,
      "lng": -0.486324,
      "district": ""
    },
    {
      "id": "521",
      "name": "Fleurus Station service (unconfirmed)",
      "name_ar": "",
      "lat": 35.70167,
      "lng": -0.460647,
      "district": ""
    },
    {
      "id": "522",
      "name": "Fleurus Hassian al Etoual",
      "name_ar": "",
      "lat": 35.699085,
      "lng": -0.44685,
      "district": ""
    },
    {
      "id": "523",
      "name": "Porte de Ben Freha",
      "name_ar": "",
      "lat": 35.69628,
      "lng": -0.432601,
      "district": ""
    },
    {
      "id": "524",
      "name": "Ben Freha - Stade Matico",
      "name_ar": "",
      "lat": 35.690312,
      "lng": -0.404149,
      "district": ""
    },
    {
      "id": "525",
      "name": "Boufatis Nord",
      "name_ar": "",
      "lat": 35.687483,
      "lng": -0.390602,
      "district": ""
    },
    {
      "id": "526",
      "name": "Boufatis CEM",
      "name_ar": "",
      "lat": 35.6855,
      "lng": -0.376509,
      "district": ""
    },
    {
      "id": "527",
      "name": "Boufatis - Rue l'Emir Abdelqader",
      "name_ar": "",
      "lat": 35.682471,
      "lng": -0.362233,
      "district": ""
    },
    {
      "id": "528",
      "name": "Boufatis - Centre",
      "name_ar": "",
      "lat": 35.68011,
      "lng": -0.348463,
      "district": ""
    },
    {
      "id": "529",
      "name": "Les Amandiers Stade",
      "name_ar": "",
      "lat": 35.676403,
      "lng": -0.669415,
      "district": ""
    },
    {
      "id": "530",
      "name": "Cité Lauriers roses",
      "name_ar": "",
      "lat": 35.671889,
      "lng": -0.659197,
      "district": ""
    },
    {
      "id": "531",
      "name": "Cité Hamri / Parc d'attractions",
      "name_ar": "",
      "lat": 35.684206,
      "lng": -0.631066,
      "district": ""
    },
    {
      "id": "532",
      "name": "Soda Ruch",
      "name_ar": "",
      "lat": 35.698776,
      "lng": -0.612473,
      "district": ""
    },
    {
      "id": "533",
      "name": "Cité 4400 Belgaid",
      "name_ar": "",
      "lat": 35.743019,
      "lng": -0.531916,
      "district": ""
    },
    {
      "id": "534",
      "name": "Rondpoint Belgaid",
      "name_ar": "",
      "lat": 35.720925,
      "lng": -0.546971,
      "district": ""
    },
    {
      "id": "535",
      "name": "Stade Olympique Miloud Hadefi",
      "name_ar": "",
      "lat": 35.73014,
      "lng": -0.55565,
      "district": ""
    },
    {
      "id": "536",
      "name": "Shopping center Hadja Fatima",
      "name_ar": "",
      "lat": 35.702435,
      "lng": -0.560389,
      "district": ""
    },
    {
      "id": "537",
      "name": "Rond point Hopital",
      "name_ar": "",
      "lat": 35.69836,
      "lng": -0.590629,
      "district": ""
    },
    {
      "id": "538",
      "name": "Rue 5 Juillet",
      "name_ar": "",
      "lat": 35.717857,
      "lng": -0.580542,
      "district": ""
    },
    {
      "id": "539",
      "name": "Palais d'or",
      "name_ar": "",
      "lat": 35.728906,
      "lng": -0.586116,
      "district": ""
    },
    {
      "id": "540",
      "name": "Rond point Bouchikhi",
      "name_ar": "",
      "lat": 35.734707,
      "lng": -0.578209,
      "district": ""
    },
    {
      "id": "541",
      "name": "Jardin Mediterranéen",
      "name_ar": "",
      "lat": 35.715312,
      "lng": -0.596796,
      "district": ""
    },
    {
      "id": "542",
      "name": "Akid Lotfi entrée Belle vue",
      "name_ar": "",
      "lat": 35.718139,
      "lng": -0.595041,
      "district": ""
    },
    {
      "id": "543",
      "name": "Akid Lotfi Rue Dubai",
      "name_ar": "",
      "lat": 35.720854,
      "lng": -0.592405,
      "district": ""
    },
    {
      "id": "544",
      "name": "Akid Lotfi Centre",
      "name_ar": "",
      "lat": 35.723535,
      "lng": -0.589852,
      "district": ""
    },
    {
      "id": "545",
      "name": "Hai el Menzah",
      "name_ar": "",
      "lat": 35.749943,
      "lng": -0.563887,
      "district": ""
    },
    {
      "id": "546",
      "name": "Hassan Promo",
      "name_ar": "",
      "lat": 35.737114,
      "lng": -0.560688,
      "district": ""
    },
    {
      "id": "547",
      "name": "Cooperative Panorama",
      "name_ar": "",
      "lat": 35.751386,
      "lng": -0.548903,
      "district": ""
    },
    {
      "id": "548",
      "name": "BRI Police, Belgaid",
      "name_ar": "",
      "lat": 35.736419,
      "lng": -0.548763,
      "district": ""
    },
    {
      "id": "549",
      "name": "Carrefour les 3 Cliniques",
      "name_ar": "",
      "lat": 35.702659,
      "lng": -0.599932,
      "district": ""
    },
    {
      "id": "550",
      "name": "Boulevard Houha Mohamed",
      "name_ar": "Boulevard Houha Mohamed",
      "lat": 35.69464,
      "lng": -0.65084,
      "district": ""
    },
    {
      "id": "551",
      "name": "Institut National des Télécommunication et des technologies de l'information et de Communication",
      "name_ar": "المعهد الوطني للاتصالات وتكنولوجيات الإعلام والاتصال",
      "lat": 35.66527,
      "lng": -0.63465,
      "district": ""
    },
    {
      "id": "552",
      "name": "Cité Marhaba",
      "name_ar": "حي مرحبا",
      "lat": 35.66077,
      "lng": -0.63196,
      "district": ""
    },
    {
      "id": "553",
      "name": "Kavgui",
      "name_ar": "",
      "lat": 35.707948,
      "lng": -0.610042,
      "district": ""
    },
    {
      "id": "554",
      "name": "Hai Nour",
      "name_ar": "",
      "lat": 35.701548,
      "lng": -0.570533,
      "district": ""
    },
    {
      "id": "574",
      "name": "EPSP Hai Daya Ibn Sina",
      "name_ar": "",
      "lat": 35.671051,
      "lng": -0.630374,
      "district": ""
    },
    {
      "id": "575",
      "name": "APC Petit Lac (Ibn sina)",
      "name_ar": "",
      "lat": 35.677457,
      "lng": -0.623113,
      "district": ""
    },
    {
      "id": "576",
      "name": "Hammam Warda Charlomanti",
      "name_ar": "",
      "lat": 35.685472,
      "lng": -0.620404,
      "district": ""
    },
    {
      "id": "577",
      "name": "Cité Cheminots SNTF",
      "name_ar": "",
      "lat": 35.690323,
      "lng": -0.63012,
      "district": ""
    },
    {
      "id": "578",
      "name": "Gare d'Oran",
      "name_ar": "",
      "lat": 35.697921,
      "lng": -0.639078,
      "district": ""
    },
    {
      "id": "579",
      "name": "Hopital Plateau",
      "name_ar": "",
      "lat": 35.694618,
      "lng": -0.646913,
      "district": ""
    },
    {
      "id": "580",
      "name": "APC Bir el Djir",
      "name_ar": "",
      "lat": 35.702768,
      "lng": -0.585342,
      "district": ""
    },
    {
      "id": "581",
      "name": "Residence universitaire emir Abdelkader",
      "name_ar": "",
      "lat": 35.710666,
      "lng": -0.589779,
      "district": ""
    },
    {
      "id": "582",
      "name": "Wilaya Bel Air",
      "name_ar": "",
      "lat": 35.700657,
      "lng": -0.629308,
      "district": ""
    },
    {
      "id": "589",
      "name": "El Braya Poste",
      "name_ar": "",
      "lat": 35.630797,
      "lng": -0.53895275,
      "district": ""
    },
    {
      "id": "596",
      "name": "Hassi el Byod approx",
      "name_ar": "",
      "lat": 35.647797,
      "lng": -0.57264,
      "district": ""
    },
    {
      "id": "597",
      "name": "Misserghin Hai Si Rabah",
      "name_ar": "",
      "lat": 35.617832,
      "lng": -0.752895,
      "district": ""
    },
    {
      "id": "598",
      "name": "Porte de Misserghin",
      "name_ar": "",
      "lat": 35.620571,
      "lng": -0.723049,
      "district": ""
    },
    {
      "id": "603",
      "name": "Oued Tlilat station service",
      "name_ar": "",
      "lat": 35.553421,
      "lng": -0.454277,
      "district": ""
    },
    {
      "id": "604",
      "name": "Oued Tlilat Sureté de la Daira",
      "name_ar": "",
      "lat": 35.553065,
      "lng": -0.452654,
      "district": ""
    },
    {
      "id": "605",
      "name": "Oued Tlilat Cité en Nasr",
      "name_ar": "",
      "lat": 35.550905,
      "lng": -0.443005,
      "district": ""
    },
    {
      "id": "607",
      "name": "Rocher Porte d'Oran",
      "name_ar": "",
      "lat": 35.647643,
      "lng": -0.706618,
      "district": ""
    },
    {
      "id": "608",
      "name": "Hassi APC Mairie",
      "name_ar": "",
      "lat": 35.659103,
      "lng": -0.695937,
      "district": ""
    },
    {
      "id": "609",
      "name": "Hassi CNAS",
      "name_ar": "",
      "lat": 35.660437,
      "lng": -0.693188,
      "district": ""
    },
    {
      "id": "610",
      "name": "Hassi - Grava",
      "name_ar": "",
      "lat": 35.663637,
      "lng": -0.684399,
      "district": ""
    },
    {
      "id": "611",
      "name": "Les Amandiers Mairie",
      "name_ar": "",
      "lat": 35.67409,
      "lng": -0.678889,
      "district": ""
    },
    {
      "id": "612",
      "name": "el Kmin (Ecukmuhl) Feu rouge",
      "name_ar": "",
      "lat": 35.692434,
      "lng": -0.654834,
      "district": ""
    },
    {
      "id": "613",
      "name": "el Kmin (Eckmuhl)",
      "name_ar": "",
      "lat": 35.691408,
      "lng": -0.65558,
      "district": ""
    },
    {
      "id": "614",
      "name": "Toro les Arènes",
      "name_ar": "",
      "lat": 35.690751,
      "lng": -0.656018,
      "district": ""
    },
    {
      "id": "620",
      "name": "Porte de AADL Misserghin",
      "name_ar": "",
      "lat": 35.67557,
      "lng": -0.677288,
      "district": ""
    },
    {
      "id": "621",
      "name": "AADL Misserghin quincaillerie",
      "name_ar": "",
      "lat": 35.668358,
      "lng": -0.682785,
      "district": ""
    },
    {
      "id": "622",
      "name": "AADL Misserghin Site 18",
      "name_ar": "",
      "lat": 35.636923,
      "lng": -0.704536,
      "district": ""
    },
    {
      "id": "623",
      "name": "Aadl Misserghine Terminus",
      "name_ar": "",
      "lat": 35.640744,
      "lng": -0.697187,
      "district": ""
    },
    {
      "id": "625",
      "name": "Sidi Chahmi Laliga",
      "name_ar": "سيدي الشحمي لاليغا",
      "lat": 35.680558,
      "lng": -0.539786,
      "district": ""
    },
    {
      "id": "626",
      "name": "Oued Tlilat monument aux martyrs",
      "name_ar": "وادي تليلات نصب الشهداء",
      "lat": 35.629783,
      "lng": -0.523701,
      "district": ""
    },
    {
      "id": "627",
      "name": "Place 1er Novembre",
      "name_ar": "ساحة أول نوفمبر",
      "lat": 35.70367,
      "lng": -0.64914,
      "district": ""
    },
    {
      "id": "628",
      "name": "11",
      "name_ar": "11",
      "lat": 35.7007,
      "lng": -0.64739,
      "district": ""
    },
    {
      "id": "629",
      "name": "Cinema Maghreb",
      "name_ar": "",
      "lat": 35.70227,
      "lng": -0.64135,
      "district": ""
    },
    {
      "id": "630",
      "name": "Rue Larbi Ben M'hidi Ex Rue du Général Leclerc",
      "name_ar": "شارع العربي بن مهيدي",
      "lat": 35.70511,
      "lng": -0.63079,
      "district": ""
    },
    {
      "id": "631",
      "name": "Avenue Ould Kablia Saliha",
      "name_ar": "شارع ولد قابلية صليحة",
      "lat": 35.7066,
      "lng": -0.62797,
      "district": ""
    },
    {
      "id": "632",
      "name": "Avenue Max Marchand",
      "name_ar": "شارع تونس",
      "lat": 35.70641,
      "lng": -0.62352,
      "district": ""
    },
    {
      "id": "634",
      "name": "Avenue Bougerri Khelifa",
      "name_ar": "شارع خليفة بوري",
      "lat": 35.70685,
      "lng": -0.62098,
      "district": ""
    },
    {
      "id": "635",
      "name": "Avenue Bougerri Khelifa",
      "name_ar": "شارع خليفة بوري",
      "lat": 35.70743,
      "lng": -0.61583,
      "district": ""
    },
    {
      "id": "636",
      "name": "Avenue Bougerri Khelifa",
      "name_ar": "شارع خليفة بوري",
      "lat": 35.70567,
      "lng": -0.61105,
      "district": ""
    },
    {
      "id": "637",
      "name": "HLM",
      "name_ar": "أشلام",
      "lat": 35.70587,
      "lng": -0.6044,
      "district": ""
    },
    {
      "id": "638",
      "name": "RN 11",
      "name_ar": "RN 11",
      "lat": 35.70723,
      "lng": -0.59771,
      "district": ""
    },
    {
      "id": "639",
      "name": "Carrefour les 3 Cliniques Nekkache",
      "name_ar": "",
      "lat": 35.70517,
      "lng": -0.59118,
      "district": ""
    },
    {
      "id": "640",
      "name": "Cité Usto Marché",
      "name_ar": "",
      "lat": 35.70453,
      "lng": -0.58535,
      "district": ""
    },
    {
      "id": "641",
      "name": "Université USTO",
      "name_ar": "Université USTO",
      "lat": 35.70401,
      "lng": -0.57765,
      "district": ""
    },
    {
      "id": "642",
      "name": "Haï Ennour",
      "name_ar": "حي النور",
      "lat": 35.70265,
      "lng": -0.56947,
      "district": ""
    },
    {
      "id": "643",
      "name": "Residence El Mordjane",
      "name_ar": "إقامة المرجان",
      "lat": 35.69921,
      "lng": -0.5688,
      "district": ""
    },
    {
      "id": "644",
      "name": "Residence El Mordjane",
      "name_ar": "إقامة المرجان",
      "lat": 35.69639,
      "lng": -0.57234,
      "district": ""
    },
    {
      "id": "645",
      "name": "Hai El Yasmine",
      "name_ar": "حي الياسمين",
      "lat": 35.69549,
      "lng": -0.57443,
      "district": ""
    },
    {
      "id": "646",
      "name": "AADL 1196 Logts",
      "name_ar": "AADL 1196 Logts",
      "lat": 35.70164,
      "lng": -0.57547,
      "district": ""
    },
    {
      "id": "647",
      "name": "Rue Zabour Larbi",
      "name_ar": "Rue Zabour Larbi",
      "lat": 35.69471,
      "lng": -0.63116,
      "district": "Cité El Khaldia"
    },
    {
      "id": "648",
      "name": "Arrêt Sidi Bachir",
      "name_ar": "Arrêt Sidi Bachir",
      "lat": 35.69642,
      "lng": -0.63068,
      "district": ""
    },
    {
      "id": "649",
      "name": "La Wilaya",
      "name_ar": "La Wilaya",
      "lat": 35.70165,
      "lng": -0.63015,
      "district": ""
    },
    {
      "id": "650",
      "name": "Avenue Bougerri Khelifa",
      "name_ar": "Avenue Bougerri Khelifa",
      "lat": 35.70714,
      "lng": -0.61825,
      "district": ""
    },
    {
      "id": "651",
      "name": "Avenue d'Arcole",
      "name_ar": "Avenue d'Arcole",
      "lat": 35.70591,
      "lng": -0.61179,
      "district": ""
    },
    {
      "id": "652",
      "name": "Avenue d'Arcole",
      "name_ar": "Avenue d'Arcole",
      "lat": 35.70528,
      "lng": -0.60804,
      "district": ""
    },
    {
      "id": "653",
      "name": "Cité Usto",
      "name_ar": "Cité Usto",
      "lat": 35.70185,
      "lng": -0.59124,
      "district": "Cité USTO"
    },
    {
      "id": "654",
      "name": "Arrêt Cité USTO #2",
      "name_ar": "Arrêt Cité USTO #2",
      "lat": 35.70457,
      "lng": -0.57069,
      "district": "Cité USTO"
    },
    {
      "id": "655",
      "name": "Epic-CET Oran",
      "name_ar": "Epic-CET Oran",
      "lat": 35.69021,
      "lng": -0.64299,
      "district": ""
    },
    {
      "id": "656",
      "name": "102, 51, 4G",
      "name_ar": "102, 51, 4G",
      "lat": 35.69289,
      "lng": -0.63599,
      "district": ""
    },
    {
      "id": "657",
      "name": "Avenue Bougerri Khelifa",
      "name_ar": "شارع خليفة بوري",
      "lat": 35.70685,
      "lng": -0.62098,
      "district": ""
    },
    {
      "id": "658",
      "name": "RN 11",
      "name_ar": "RN 11",
      "lat": 35.70579,
      "lng": -0.60439,
      "district": ""
    },
    {
      "id": "659",
      "name": "RN 11",
      "name_ar": "RN 11",
      "lat": 35.7071,
      "lng": -0.59773,
      "district": ""
    },
    {
      "id": "660",
      "name": "Boulevard Chahid Taleb Abderrahmane 1930-1958",
      "name_ar": "نهج الشهيد طالب عبد الرحمان 1930-1958",
      "lat": 35.70188,
      "lng": -0.59587,
      "district": ""
    },
    {
      "id": "661",
      "name": "Boulevard Chahid Taleb Abderrahmane 1930-1958",
      "name_ar": "نهج الشهيد طالب عبد الرحمان 1930-1958",
      "lat": 35.70376,
      "lng": -0.57765,
      "district": ""
    },
    {
      "id": "662",
      "name": "Haï Ennour",
      "name_ar": "حي النور",
      "lat": 35.70265,
      "lng": -0.56947,
      "district": ""
    },
    {
      "id": "663",
      "name": "11, 51, H,G1,G3",
      "name_ar": "11, 51, H,G1,G3",
      "lat": 35.69928,
      "lng": -0.56881,
      "district": ""
    },
    {
      "id": "664",
      "name": "Residence El Mordjane",
      "name_ar": "إقامة المرجان",
      "lat": 35.69639,
      "lng": -0.57234,
      "district": ""
    },
    {
      "id": "665",
      "name": "Boulevard Chahid Hana Lakhdar 1932-1958",
      "name_ar": "نهج الشهيد مانة لخضر 1932-1958",
      "lat": 35.70062,
      "lng": -0.57484,
      "district": ""
    },
    {
      "id": "666",
      "name": "Boulevard Chahid Hana Lakhdar 1932-1958",
      "name_ar": "نهج الشهيد مانة لخضر 1932-1958",
      "lat": 35.70387,
      "lng": -0.57724,
      "district": ""
    },
    {
      "id": "667",
      "name": "Boulevard Maata Mohamed Habib",
      "name_ar": "نهج معتا محمد حبيب",
      "lat": 35.70119,
      "lng": -0.65024,
      "district": ""
    },
    {
      "id": "668",
      "name": "Boulevard Houha Mohamed",
      "name_ar": "Boulevard Houha Mohamed",
      "lat": 35.69361,
      "lng": -0.65046,
      "district": ""
    },
    {
      "id": "669",
      "name": "CEM Okba Ibn Nafaa",
      "name_ar": "CEM Okba Ibn Nafaa",
      "lat": 35.69078,
      "lng": -0.64941,
      "district": ""
    },
    {
      "id": "670",
      "name": "Boulevard Houha Mohamed",
      "name_ar": "Boulevard Houha Mohamed",
      "lat": 35.67971,
      "lng": -0.64357,
      "district": ""
    },
    {
      "id": "671",
      "name": "RN 2A",
      "name_ar": "RN 2A",
      "lat": 35.64752,
      "lng": -0.62355,
      "district": ""
    },
    {
      "id": "672",
      "name": "RN 2A",
      "name_ar": "RN 2A",
      "lat": 35.63881,
      "lng": -0.61271,
      "district": ""
    }
  ],
  "lines": [
    {
      "id": "2",
      "name": "Ligne 2",
      "color": "#D84B4B",
      "stopIds": [
        "160",
        "2",
        "161",
        "162",
        "5",
        "163",
        "164",
        "165",
        "166",
        "167",
        "168",
        "11",
        "169"
      ],
      "path": [
        [
          35.69515,
          -0.49954
        ],
        [
          35.69502,
          -0.49966
        ],
        [
          35.69496,
          -0.49971
        ],
        [
          35.69465,
          -0.50003
        ],
        [
          35.69429,
          -0.50043
        ],
        [
          35.6939,
          -0.50086
        ],
        [
          35.69372,
          -0.50104
        ],
        [
          35.69353,
          -0.50121
        ],
        [
          35.69301,
          -0.50155
        ],
        [
          35.69198,
          -0.50206
        ],
        [
          35.69183,
          -0.50213
        ],
        [
          35.6917,
          -0.50221
        ],
        [
          35.69071,
          -0.50274
        ],
        [
          35.68983,
          -0.50319
        ],
        [
          35.68967,
          -0.50327
        ],
        [
          35.68887,
          -0.50369
        ],
        [
          35.68857,
          -0.50388
        ],
        [
          35.68828,
          -0.50409
        ],
        [
          35.68802,
          -0.50434
        ],
        [
          35.68795,
          -0.50446
        ],
        [
          35.68788,
          -0.5046
        ],
        [
          35.68782,
          -0.50474
        ],
        [
          35.68778,
          -0.50488
        ],
        [
          35.68777,
          -0.50492
        ],
        [
          35.68775,
          -0.50496
        ],
        [
          35.68773,
          -0.50498
        ],
        [
          35.68764,
          -0.50507
        ],
        [
          35.68758,
          -0.50515
        ],
        [
          35.68746,
          -0.50539
        ],
        [
          35.68734,
          -0.50572
        ],
        [
          35.68728,
          -0.50594
        ],
        [
          35.68722,
          -0.50615
        ],
        [
          35.68718,
          -0.50635
        ],
        [
          35.68714,
          -0.50671
        ],
        [
          35.68711,
          -0.50755
        ],
        [
          35.68705,
          -0.50953
        ],
        [
          35.68698,
          -0.51123
        ],
        [
          35.68694,
          -0.51249
        ],
        [
          35.68686,
          -0.51477
        ],
        [
          35.68683,
          -0.51632
        ],
        [
          35.68682,
          -0.5168
        ],
        [
          35.68683,
          -0.51696
        ],
        [
          35.68686,
          -0.51704
        ],
        [
          35.68691,
          -0.5171
        ],
        [
          35.68694,
          -0.51716
        ],
        [
          35.68696,
          -0.51723
        ],
        [
          35.68696,
          -0.5173
        ],
        [
          35.68695,
          -0.51737
        ],
        [
          35.68692,
          -0.51743
        ],
        [
          35.68689,
          -0.51747
        ],
        [
          35.68686,
          -0.51751
        ],
        [
          35.68682,
          -0.5176
        ],
        [
          35.68679,
          -0.51771
        ],
        [
          35.68677,
          -0.51783
        ],
        [
          35.6867,
          -0.51943
        ],
        [
          35.68661,
          -0.52106
        ],
        [
          35.68644,
          -0.52346
        ],
        [
          35.68638,
          -0.52521
        ],
        [
          35.68628,
          -0.52812
        ],
        [
          35.68617,
          -0.53093
        ],
        [
          35.68598,
          -0.53628
        ],
        [
          35.68589,
          -0.53946
        ],
        [
          35.68588,
          -0.53958
        ],
        [
          35.68587,
          -0.53993
        ],
        [
          35.68586,
          -0.54014
        ],
        [
          35.68581,
          -0.54143
        ],
        [
          35.68577,
          -0.54273
        ],
        [
          35.68577,
          -0.54275
        ],
        [
          35.68576,
          -0.54278
        ],
        [
          35.68576,
          -0.54291
        ],
        [
          35.68575,
          -0.54367
        ],
        [
          35.68576,
          -0.54425
        ],
        [
          35.68579,
          -0.54461
        ],
        [
          35.68591,
          -0.54549
        ],
        [
          35.68607,
          -0.54656
        ],
        [
          35.68615,
          -0.54684
        ],
        [
          35.68617,
          -0.54696
        ],
        [
          35.68623,
          -0.547
        ],
        [
          35.68628,
          -0.54706
        ],
        [
          35.6863,
          -0.54713
        ],
        [
          35.6863,
          -0.54721
        ],
        [
          35.68628,
          -0.54729
        ],
        [
          35.68624,
          -0.54736
        ],
        [
          35.68621,
          -0.54738
        ],
        [
          35.68622,
          -0.54753
        ],
        [
          35.68624,
          -0.54768
        ],
        [
          35.68679,
          -0.55137
        ],
        [
          35.68701,
          -0.55282
        ],
        [
          35.68717,
          -0.55366
        ],
        [
          35.68731,
          -0.55426
        ],
        [
          35.6875,
          -0.55489
        ],
        [
          35.6877,
          -0.55543
        ],
        [
          35.68786,
          -0.55587
        ],
        [
          35.688,
          -0.55617
        ],
        [
          35.68831,
          -0.5568
        ],
        [
          35.68833,
          -0.55681
        ],
        [
          35.68838,
          -0.55677
        ],
        [
          35.68843,
          -0.55674
        ],
        [
          35.68832,
          -0.55643
        ],
        [
          35.68823,
          -0.55616
        ],
        [
          35.688,
          -0.55617
        ],
        [
          35.68831,
          -0.5568
        ],
        [
          35.68833,
          -0.55681
        ],
        [
          35.68835,
          -0.55684
        ],
        [
          35.68836,
          -0.55687
        ],
        [
          35.68836,
          -0.5569
        ],
        [
          35.68849,
          -0.55717
        ],
        [
          35.68878,
          -0.55773
        ],
        [
          35.69014,
          -0.56049
        ],
        [
          35.69033,
          -0.56088
        ],
        [
          35.69043,
          -0.56116
        ],
        [
          35.69053,
          -0.56147
        ],
        [
          35.69094,
          -0.56308
        ],
        [
          35.69104,
          -0.56354
        ],
        [
          35.69121,
          -0.56424
        ],
        [
          35.69182,
          -0.5668
        ],
        [
          35.69196,
          -0.56736
        ],
        [
          35.6921,
          -0.56795
        ],
        [
          35.69218,
          -0.56824
        ],
        [
          35.69243,
          -0.56926
        ],
        [
          35.69258,
          -0.56986
        ],
        [
          35.69271,
          -0.57024
        ],
        [
          35.69342,
          -0.57208
        ],
        [
          35.69354,
          -0.57239
        ],
        [
          35.69367,
          -0.57274
        ],
        [
          35.69386,
          -0.57323
        ],
        [
          35.69396,
          -0.57348
        ],
        [
          35.69403,
          -0.57365
        ],
        [
          35.69412,
          -0.57383
        ],
        [
          35.69422,
          -0.57398
        ],
        [
          35.69435,
          -0.57411
        ],
        [
          35.69442,
          -0.57411
        ],
        [
          35.69449,
          -0.57413
        ],
        [
          35.69465,
          -0.57419
        ],
        [
          35.69473,
          -0.57424
        ],
        [
          35.69479,
          -0.57431
        ],
        [
          35.69485,
          -0.57438
        ],
        [
          35.69489,
          -0.57444
        ],
        [
          35.69493,
          -0.57455
        ],
        [
          35.69497,
          -0.57467
        ],
        [
          35.69498,
          -0.57479
        ],
        [
          35.69498,
          -0.57491
        ],
        [
          35.69497,
          -0.57503
        ],
        [
          35.69495,
          -0.5751
        ],
        [
          35.69493,
          -0.57517
        ],
        [
          35.69489,
          -0.57534
        ],
        [
          35.69486,
          -0.57551
        ],
        [
          35.69485,
          -0.57562
        ],
        [
          35.69486,
          -0.57573
        ],
        [
          35.69488,
          -0.57582
        ],
        [
          35.69493,
          -0.57598
        ],
        [
          35.69511,
          -0.57645
        ],
        [
          35.69564,
          -0.57787
        ],
        [
          35.69573,
          -0.57815
        ],
        [
          35.6959,
          -0.57872
        ],
        [
          35.69595,
          -0.57888
        ],
        [
          35.69602,
          -0.57919
        ],
        [
          35.6963,
          -0.58044
        ],
        [
          35.69645,
          -0.58123
        ],
        [
          35.6965,
          -0.58189
        ],
        [
          35.69652,
          -0.58261
        ],
        [
          35.69653,
          -0.58276
        ],
        [
          35.69655,
          -0.58345
        ],
        [
          35.69657,
          -0.584
        ],
        [
          35.69658,
          -0.58413
        ],
        [
          35.69661,
          -0.58425
        ],
        [
          35.69664,
          -0.58435
        ],
        [
          35.69668,
          -0.58447
        ],
        [
          35.69676,
          -0.58461
        ],
        [
          35.69679,
          -0.58463
        ],
        [
          35.69686,
          -0.58458
        ],
        [
          35.69687,
          -0.58456
        ],
        [
          35.69688,
          -0.58455
        ],
        [
          35.69689,
          -0.58452
        ],
        [
          35.6969,
          -0.5845
        ],
        [
          35.6969,
          -0.58443
        ],
        [
          35.69689,
          -0.58394
        ],
        [
          35.69689,
          -0.5839
        ],
        [
          35.69688,
          -0.58386
        ],
        [
          35.69687,
          -0.58381
        ],
        [
          35.69686,
          -0.58378
        ],
        [
          35.69684,
          -0.58374
        ],
        [
          35.69679,
          -0.58366
        ],
        [
          35.69678,
          -0.58363
        ],
        [
          35.69677,
          -0.58361
        ],
        [
          35.69676,
          -0.58359
        ],
        [
          35.69676,
          -0.58356
        ],
        [
          35.69677,
          -0.58354
        ],
        [
          35.69678,
          -0.58352
        ],
        [
          35.69679,
          -0.5835
        ],
        [
          35.69681,
          -0.58349
        ],
        [
          35.69683,
          -0.58349
        ],
        [
          35.69694,
          -0.58348
        ],
        [
          35.69697,
          -0.58348
        ],
        [
          35.69712,
          -0.58348
        ],
        [
          35.69717,
          -0.58348
        ],
        [
          35.69717,
          -0.58356
        ],
        [
          35.697,
          -0.58357
        ],
        [
          35.69699,
          -0.58357
        ],
        [
          35.69698,
          -0.58357
        ],
        [
          35.69697,
          -0.58358
        ],
        [
          35.69697,
          -0.5836
        ],
        [
          35.69696,
          -0.584
        ],
        [
          35.69695,
          -0.58433
        ],
        [
          35.69695,
          -0.58435
        ],
        [
          35.69695,
          -0.58436
        ],
        [
          35.69694,
          -0.58438
        ],
        [
          35.69693,
          -0.58443
        ],
        [
          35.69692,
          -0.58453
        ],
        [
          35.69693,
          -0.58458
        ],
        [
          35.69693,
          -0.58462
        ],
        [
          35.69694,
          -0.58467
        ],
        [
          35.69698,
          -0.5848
        ],
        [
          35.69705,
          -0.58492
        ],
        [
          35.69707,
          -0.58499
        ],
        [
          35.69709,
          -0.58505
        ],
        [
          35.69711,
          -0.58517
        ],
        [
          35.69712,
          -0.58526
        ],
        [
          35.69712,
          -0.58539
        ],
        [
          35.69709,
          -0.58548
        ],
        [
          35.69704,
          -0.58564
        ],
        [
          35.69695,
          -0.58577
        ],
        [
          35.69684,
          -0.58588
        ],
        [
          35.69674,
          -0.58598
        ],
        [
          35.69668,
          -0.58604
        ],
        [
          35.69666,
          -0.5861
        ],
        [
          35.69663,
          -0.58617
        ],
        [
          35.69662,
          -0.58626
        ],
        [
          35.69662,
          -0.58634
        ],
        [
          35.69662,
          -0.58644
        ],
        [
          35.69665,
          -0.58717
        ],
        [
          35.69673,
          -0.58956
        ],
        [
          35.69681,
          -0.5913
        ],
        [
          35.69686,
          -0.5925
        ],
        [
          35.6969,
          -0.59357
        ],
        [
          35.69692,
          -0.59428
        ],
        [
          35.69695,
          -0.59493
        ],
        [
          35.69697,
          -0.59521
        ],
        [
          35.69698,
          -0.59581
        ],
        [
          35.69706,
          -0.59846
        ],
        [
          35.69707,
          -0.59872
        ],
        [
          35.69695,
          -0.60266
        ],
        [
          35.69694,
          -0.60282
        ],
        [
          35.69694,
          -0.60299
        ],
        [
          35.69693,
          -0.6032
        ],
        [
          35.69693,
          -0.60337
        ],
        [
          35.69695,
          -0.60348
        ],
        [
          35.69697,
          -0.60356
        ],
        [
          35.69699,
          -0.60362
        ],
        [
          35.69702,
          -0.60371
        ],
        [
          35.69708,
          -0.6038
        ],
        [
          35.6971,
          -0.60381
        ],
        [
          35.69712,
          -0.60383
        ],
        [
          35.69718,
          -0.60388
        ],
        [
          35.69724,
          -0.60395
        ],
        [
          35.69728,
          -0.60403
        ],
        [
          35.69732,
          -0.60412
        ],
        [
          35.69735,
          -0.60421
        ],
        [
          35.69736,
          -0.60431
        ],
        [
          35.69736,
          -0.60437
        ],
        [
          35.69735,
          -0.60448
        ],
        [
          35.69732,
          -0.6046
        ],
        [
          35.69728,
          -0.6047
        ],
        [
          35.69722,
          -0.60479
        ],
        [
          35.69715,
          -0.60487
        ],
        [
          35.69711,
          -0.6049
        ],
        [
          35.69716,
          -0.60507
        ],
        [
          35.69724,
          -0.60521
        ],
        [
          35.69729,
          -0.60528
        ],
        [
          35.69732,
          -0.60532
        ],
        [
          35.69734,
          -0.60535
        ],
        [
          35.69738,
          -0.60533
        ],
        [
          35.69741,
          -0.60533
        ],
        [
          35.69745,
          -0.60535
        ],
        [
          35.69748,
          -0.60538
        ],
        [
          35.69749,
          -0.60542
        ],
        [
          35.69749,
          -0.60547
        ],
        [
          35.69748,
          -0.60551
        ],
        [
          35.69746,
          -0.60554
        ],
        [
          35.69743,
          -0.60556
        ],
        [
          35.6974,
          -0.60557
        ],
        [
          35.69736,
          -0.60555
        ],
        [
          35.69733,
          -0.60552
        ],
        [
          35.69731,
          -0.60548
        ],
        [
          35.6973,
          -0.60543
        ],
        [
          35.69732,
          -0.60539
        ],
        [
          35.69734,
          -0.60535
        ],
        [
          35.69738,
          -0.60533
        ],
        [
          35.69741,
          -0.60533
        ],
        [
          35.69745,
          -0.60535
        ],
        [
          35.69748,
          -0.60538
        ],
        [
          35.69752,
          -0.60532
        ],
        [
          35.69757,
          -0.60528
        ],
        [
          35.69765,
          -0.60529
        ],
        [
          35.69796,
          -0.60551
        ],
        [
          35.69812,
          -0.60565
        ],
        [
          35.69814,
          -0.60569
        ],
        [
          35.69915,
          -0.60654
        ],
        [
          35.69917,
          -0.60657
        ],
        [
          35.69918,
          -0.60661
        ],
        [
          35.69888,
          -0.60711
        ],
        [
          35.69889,
          -0.60712
        ],
        [
          35.69891,
          -0.60714
        ],
        [
          35.69891,
          -0.60717
        ],
        [
          35.69891,
          -0.60719
        ],
        [
          35.69889,
          -0.60721
        ],
        [
          35.69891,
          -0.60723
        ],
        [
          35.69908,
          -0.60738
        ],
        [
          35.699,
          -0.60753
        ],
        [
          35.69897,
          -0.60761
        ],
        [
          35.69896,
          -0.6077
        ],
        [
          35.69896,
          -0.60781
        ],
        [
          35.69896,
          -0.60793
        ],
        [
          35.69906,
          -0.60833
        ],
        [
          35.69908,
          -0.60851
        ],
        [
          35.69921,
          -0.60916
        ],
        [
          35.69926,
          -0.60934
        ],
        [
          35.69926,
          -0.60947
        ],
        [
          35.69922,
          -0.60956
        ],
        [
          35.69834,
          -0.61005
        ],
        [
          35.69798,
          -0.61019
        ],
        [
          35.69757,
          -0.61037
        ],
        [
          35.69729,
          -0.61052
        ],
        [
          35.69719,
          -0.61057
        ],
        [
          35.69712,
          -0.61066
        ],
        [
          35.6969,
          -0.611
        ],
        [
          35.69693,
          -0.61142
        ],
        [
          35.69697,
          -0.61194
        ],
        [
          35.69704,
          -0.61251
        ],
        [
          35.69708,
          -0.61265
        ],
        [
          35.69713,
          -0.61276
        ],
        [
          35.6972,
          -0.61284
        ],
        [
          35.69724,
          -0.61287
        ],
        [
          35.69729,
          -0.61292
        ],
        [
          35.69735,
          -0.61303
        ],
        [
          35.69738,
          -0.61314
        ],
        [
          35.69738,
          -0.61327
        ],
        [
          35.69735,
          -0.61339
        ],
        [
          35.69732,
          -0.61345
        ],
        [
          35.69728,
          -0.6135
        ],
        [
          35.69723,
          -0.61355
        ],
        [
          35.69717,
          -0.61358
        ],
        [
          35.69711,
          -0.6136
        ],
        [
          35.69705,
          -0.6136
        ],
        [
          35.69699,
          -0.61359
        ],
        [
          35.69696,
          -0.61358
        ],
        [
          35.69685,
          -0.61351
        ],
        [
          35.6968,
          -0.61344
        ],
        [
          35.69675,
          -0.61333
        ],
        [
          35.69673,
          -0.61321
        ],
        [
          35.69674,
          -0.61314
        ],
        [
          35.69676,
          -0.61307
        ],
        [
          35.69678,
          -0.613
        ],
        [
          35.69681,
          -0.61294
        ],
        [
          35.69686,
          -0.61289
        ],
        [
          35.69689,
          -0.61287
        ],
        [
          35.69691,
          -0.61285
        ],
        [
          35.69694,
          -0.61283
        ],
        [
          35.69702,
          -0.6128
        ],
        [
          35.69707,
          -0.6128
        ],
        [
          35.69714,
          -0.61281
        ],
        [
          35.6972,
          -0.61284
        ],
        [
          35.69724,
          -0.61287
        ],
        [
          35.69729,
          -0.61292
        ],
        [
          35.69735,
          -0.61303
        ],
        [
          35.69738,
          -0.61314
        ],
        [
          35.69738,
          -0.61327
        ],
        [
          35.69735,
          -0.61339
        ],
        [
          35.69732,
          -0.61345
        ],
        [
          35.69728,
          -0.6135
        ],
        [
          35.69723,
          -0.61355
        ],
        [
          35.69717,
          -0.61358
        ],
        [
          35.69711,
          -0.6136
        ],
        [
          35.69705,
          -0.6136
        ],
        [
          35.69699,
          -0.61359
        ],
        [
          35.69696,
          -0.61358
        ],
        [
          35.69687,
          -0.61359
        ],
        [
          35.69677,
          -0.61364
        ],
        [
          35.69667,
          -0.61371
        ],
        [
          35.69649,
          -0.61391
        ],
        [
          35.69461,
          -0.61607
        ],
        [
          35.69365,
          -0.61714
        ],
        [
          35.69283,
          -0.61809
        ],
        [
          35.6928,
          -0.61812
        ],
        [
          35.69264,
          -0.6183
        ],
        [
          35.69252,
          -0.61844
        ],
        [
          35.69123,
          -0.61989
        ],
        [
          35.69094,
          -0.62022
        ],
        [
          35.69088,
          -0.6203
        ],
        [
          35.69085,
          -0.62036
        ],
        [
          35.69033,
          -0.62094
        ],
        [
          35.69025,
          -0.62082
        ],
        [
          35.69004,
          -0.62047
        ],
        [
          35.69,
          -0.62037
        ],
        [
          35.68998,
          -0.62028
        ],
        [
          35.68997,
          -0.62017
        ],
        [
          35.69001,
          -0.62
        ],
        [
          35.69007,
          -0.61988
        ],
        [
          35.69013,
          -0.61982
        ],
        [
          35.6902,
          -0.61979
        ],
        [
          35.69028,
          -0.61978
        ],
        [
          35.69039,
          -0.6198
        ],
        [
          35.6905,
          -0.61986
        ],
        [
          35.69058,
          -0.61995
        ],
        [
          35.69064,
          -0.62004
        ],
        [
          35.69073,
          -0.62017
        ],
        [
          35.69078,
          -0.62026
        ],
        [
          35.69084,
          -0.62022
        ],
        [
          35.6909,
          -0.62016
        ],
        [
          35.69166,
          -0.6193
        ],
        [
          35.6918,
          -0.61914
        ],
        [
          35.69214,
          -0.61875
        ],
        [
          35.69248,
          -0.61837
        ],
        [
          35.69261,
          -0.61823
        ],
        [
          35.69264,
          -0.6183
        ],
        [
          35.69268,
          -0.61841
        ],
        [
          35.69134,
          -0.6199
        ],
        [
          35.69129,
          -0.61998
        ],
        [
          35.69123,
          -0.61989
        ],
        [
          35.69094,
          -0.62022
        ],
        [
          35.69088,
          -0.6203
        ],
        [
          35.69085,
          -0.62036
        ],
        [
          35.69096,
          -0.62053
        ],
        [
          35.69108,
          -0.62074
        ],
        [
          35.69115,
          -0.62092
        ],
        [
          35.69116,
          -0.62103
        ],
        [
          35.69116,
          -0.62109
        ],
        [
          35.69115,
          -0.62116
        ],
        [
          35.69116,
          -0.62128
        ],
        [
          35.69117,
          -0.62134
        ],
        [
          35.6912,
          -0.6214
        ],
        [
          35.69157,
          -0.62195
        ],
        [
          35.69219,
          -0.62281
        ],
        [
          35.69238,
          -0.62307
        ],
        [
          35.6927,
          -0.62352
        ],
        [
          35.69303,
          -0.62401
        ],
        [
          35.69316,
          -0.62421
        ],
        [
          35.69332,
          -0.62448
        ],
        [
          35.69356,
          -0.6249
        ],
        [
          35.69383,
          -0.62536
        ],
        [
          35.694,
          -0.62565
        ],
        [
          35.69409,
          -0.6258
        ],
        [
          35.69438,
          -0.62631
        ],
        [
          35.69477,
          -0.62701
        ],
        [
          35.69513,
          -0.62765
        ],
        [
          35.69542,
          -0.62813
        ],
        [
          35.69557,
          -0.62837
        ],
        [
          35.69586,
          -0.62881
        ],
        [
          35.69686,
          -0.63025
        ],
        [
          35.69692,
          -0.63031
        ],
        [
          35.69699,
          -0.63034
        ],
        [
          35.69706,
          -0.63032
        ],
        [
          35.69714,
          -0.63033
        ],
        [
          35.69721,
          -0.63035
        ],
        [
          35.69728,
          -0.6304
        ],
        [
          35.69782,
          -0.6295
        ],
        [
          35.69794,
          -0.62929
        ],
        [
          35.69843,
          -0.62921
        ],
        [
          35.69887,
          -0.62914
        ],
        [
          35.69891,
          -0.62914
        ],
        [
          35.69894,
          -0.62914
        ],
        [
          35.69878,
          -0.63036
        ],
        [
          35.69875,
          -0.63063
        ],
        [
          35.69873,
          -0.63063
        ],
        [
          35.6987,
          -0.63064
        ],
        [
          35.6981,
          -0.63074
        ],
        [
          35.69744,
          -0.63084
        ],
        [
          35.69677,
          -0.63096
        ],
        [
          35.69662,
          -0.63098
        ],
        [
          35.6962,
          -0.63105
        ],
        [
          35.69585,
          -0.63111
        ],
        [
          35.69553,
          -0.63117
        ],
        [
          35.69533,
          -0.63122
        ],
        [
          35.69515,
          -0.63128
        ],
        [
          35.69492,
          -0.63138
        ],
        [
          35.69481,
          -0.63144
        ],
        [
          35.69467,
          -0.63152
        ],
        [
          35.69453,
          -0.63162
        ],
        [
          35.69441,
          -0.63172
        ],
        [
          35.6941,
          -0.63202
        ],
        [
          35.69404,
          -0.6321
        ],
        [
          35.6939,
          -0.63226
        ],
        [
          35.69371,
          -0.63252
        ],
        [
          35.69355,
          -0.63277
        ],
        [
          35.69346,
          -0.63294
        ],
        [
          35.69336,
          -0.63316
        ],
        [
          35.69321,
          -0.63357
        ],
        [
          35.69297,
          -0.63414
        ],
        [
          35.69293,
          -0.63429
        ],
        [
          35.69288,
          -0.63445
        ],
        [
          35.69286,
          -0.63455
        ],
        [
          35.69284,
          -0.63471
        ],
        [
          35.69284,
          -0.63483
        ],
        [
          35.69284,
          -0.63495
        ],
        [
          35.69285,
          -0.63506
        ],
        [
          35.69288,
          -0.63519
        ],
        [
          35.69299,
          -0.63559
        ],
        [
          35.6931,
          -0.63593
        ],
        [
          35.69317,
          -0.63615
        ],
        [
          35.69323,
          -0.63636
        ],
        [
          35.69326,
          -0.63651
        ],
        [
          35.69328,
          -0.63663
        ],
        [
          35.69328,
          -0.63675
        ],
        [
          35.69327,
          -0.63687
        ],
        [
          35.69325,
          -0.63701
        ],
        [
          35.69323,
          -0.63711
        ],
        [
          35.69319,
          -0.63722
        ],
        [
          35.69316,
          -0.6373
        ],
        [
          35.69309,
          -0.6374
        ],
        [
          35.69292,
          -0.63768
        ],
        [
          35.69187,
          -0.63921
        ],
        [
          35.69181,
          -0.6393
        ],
        [
          35.69176,
          -0.63938
        ],
        [
          35.69156,
          -0.63966
        ],
        [
          35.691,
          -0.64048
        ],
        [
          35.69097,
          -0.64057
        ],
        [
          35.69094,
          -0.64069
        ],
        [
          35.69091,
          -0.64089
        ],
        [
          35.69087,
          -0.64113
        ],
        [
          35.69082,
          -0.64142
        ],
        [
          35.6907,
          -0.64203
        ],
        [
          35.69067,
          -0.64221
        ],
        [
          35.69063,
          -0.64241
        ],
        [
          35.69058,
          -0.64268
        ]
      ],
      "stopPos": [
        0,
        13,
        69,
        98,
        140,
        194,
        282,
        346,
        411,
        437,
        455,
        497,
        523
      ],
      "returnPath": [
        [
          35.690579,
          -0.642684
        ],
        [
          35.690348,
          -0.643907
        ],
        [
          35.690147,
          -0.643813
        ],
        [
          35.6906,
          -0.640844
        ],
        [
          35.693084,
          -0.637071
        ],
        [
          35.692634,
          -0.634633
        ],
        [
          35.693781,
          -0.63204
        ],
        [
          35.693901,
          -0.63226
        ],
        [
          35.692864,
          -0.634553
        ],
        [
          35.693097,
          -0.635929
        ],
        [
          35.693191,
          -0.637216
        ],
        [
          35.691809,
          -0.6393
        ],
        [
          35.693084,
          -0.637071
        ],
        [
          35.692634,
          -0.634633
        ],
        [
          35.693781,
          -0.63204
        ],
        [
          35.694812,
          -0.631131
        ],
        [
          35.697281,
          -0.630397
        ],
        [
          35.697815,
          -0.629499
        ],
        [
          35.698433,
          -0.629206
        ],
        [
          35.698361,
          -0.628621
        ],
        [
          35.697281,
          -0.630397
        ],
        [
          35.697437,
          -0.630844
        ],
        [
          35.696766,
          -0.630957
        ],
        [
          35.696725,
          -0.63036
        ],
        [
          35.692941,
          -0.624229
        ],
        [
          35.69332,
          -0.62448
        ],
        [
          35.693563,
          -0.624902
        ],
        [
          35.694293,
          -0.624842
        ],
        [
          35.694235,
          -0.624064
        ],
        [
          35.692941,
          -0.624229
        ],
        [
          35.689981,
          -0.62028
        ],
        [
          35.69028,
          -0.619777
        ],
        [
          35.690838,
          -0.620221
        ],
        [
          35.692145,
          -0.618748
        ],
        [
          35.696483,
          -0.613822
        ],
        [
          35.696856,
          -0.612891
        ],
        [
          35.697243,
          -0.612873
        ],
        [
          35.697318,
          -0.613447
        ],
        [
          35.696853,
          -0.613508
        ],
        [
          35.696755,
          -0.613066
        ],
        [
          35.697073,
          -0.612803
        ],
        [
          35.697572,
          -0.61323
        ],
        [
          35.700442,
          -0.613491
        ],
        [
          35.702266,
          -0.614477
        ],
        [
          35.701933,
          -0.613055
        ],
        [
          35.701765,
          -0.609986
        ],
        [
          35.701115,
          -0.608342
        ],
        [
          35.699511,
          -0.606737
        ],
        [
          35.699085,
          -0.607376
        ],
        [
          35.698884,
          -0.607111
        ],
        [
          35.699174,
          -0.606567
        ],
        [
          35.697645,
          -0.605294
        ],
        [
          35.697325,
          -0.605525
        ],
        [
          35.697645,
          -0.605294
        ],
        [
          35.699174,
          -0.606567
        ],
        [
          35.698884,
          -0.607111
        ],
        [
          35.699085,
          -0.607376
        ],
        [
          35.699511,
          -0.606737
        ],
        [
          35.697701,
          -0.605147
        ],
        [
          35.697147,
          -0.604871
        ],
        [
          35.696674,
          -0.604949
        ],
        [
          35.696344,
          -0.604446
        ],
        [
          35.696734,
          -0.603248
        ],
        [
          35.696889,
          -0.598433
        ],
        [
          35.696446,
          -0.586403
        ],
        [
          35.695945,
          -0.585278
        ],
        [
          35.696221,
          -0.584651
        ],
        [
          35.696883,
          -0.584547
        ],
        [
          35.696762,
          -0.583565
        ],
        [
          35.69712,
          -0.583482
        ],
        [
          35.696925,
          -0.584427
        ],
        [
          35.697094,
          -0.585481
        ],
        [
          35.696844,
          -0.585879
        ],
        [
          35.696379,
          -0.585964
        ],
        [
          35.695945,
          -0.585278
        ],
        [
          35.696374,
          -0.584066
        ],
        [
          35.69604,
          -0.579982
        ],
        [
          35.694738,
          -0.575973
        ],
        [
          35.693962,
          -0.575341
        ],
        [
          35.693804,
          -0.574872
        ],
        [
          35.69397,
          -0.574331
        ],
        [
          35.694354,
          -0.574114
        ],
        [
          35.694792,
          -0.574307
        ],
        [
          35.694984,
          -0.574788
        ],
        [
          35.694578,
          -0.575539
        ],
        [
          35.694167,
          -0.575518
        ],
        [
          35.693866,
          -0.575171
        ],
        [
          35.693898,
          -0.573842
        ],
        [
          35.69236,
          -0.569712
        ],
        [
          35.690366,
          -0.561565
        ],
        [
          35.688222,
          -0.556927
        ],
        [
          35.688431,
          -0.556744
        ],
        [
          35.688321,
          -0.556432
        ],
        [
          35.687998,
          -0.556168
        ],
        [
          35.688284,
          -0.556974
        ],
        [
          35.687596,
          -0.555516
        ],
        [
          35.687013,
          -0.553503
        ],
        [
          35.685918,
          -0.547252
        ],
        [
          35.685692,
          -0.542663
        ],
        [
          35.685761,
          -0.542909
        ],
        [
          35.685792,
          -0.544612
        ],
        [
          35.686296,
          -0.54713
        ],
        [
          35.686099,
          -0.547425
        ],
        [
          35.68591,
          -0.547169
        ],
        [
          35.685648,
          -0.542744
        ],
        [
          35.686655,
          -0.517894
        ],
        [
          35.68651,
          -0.517241
        ],
        [
          35.686722,
          -0.516297
        ],
        [
          35.687076,
          -0.506553
        ],
        [
          35.687299,
          -0.505565
        ],
        [
          35.687891,
          -0.504473
        ],
        [
          35.689828,
          -0.503191
        ],
        [
          35.693529,
          -0.50121
        ],
        [
          35.695146,
          -0.499537
        ]
      ]
    },